[
  {
    "name": "Anker Hotel",
    "website": "",
    "location": {
      "latitude": 59.9176955,
      "longitude": 10.7579343
    },
    "address": {
      "streetNumber": "55",
      "streetName": "Storgata",
      "postalCode": "0182"
    }
  },
  {
    "name": "Karl Johan Hotel",
    "website": "",
    "location": {
      "latitude": 59.91400759999999,
      "longitude": 10.7388541
    },
    "address": {
      "streetNumber": "33",
      "streetName": "Karl Johans gate",
      "postalCode": "0162"
    }
  },
  {
    "name": "Oslo Hotel Apartments",
    "website": "",
    "location": {
      "latitude": 59.91341129999999,
      "longitude": 10.7778258
    },
    "address": {
      "streetNumber": "52",
      "streetName": "Brinken",
      "postalCode": "0654"
    }
  },
  {
    "name": "Scandic Byporten Oslo",
    "website": "",
    "location": {
      "latitude": 59.911873,
      "longitude": 10.7511217
    },
    "address": {
      "streetNumber": "6",
      "streetName": "Jernbanetorget",
      "postalCode": "0154"
    }
  },
  {
    "name": "Thon Hotel Europa",
    "website": "",
    "location": {
      "latitude": 59.91798350000001,
      "longitude": 10.7349734
    },
    "address": {
      "streetNumber": "31",
      "streetName": "Sankt Olavs Gate",
      "postalCode": "0166"
    }
  },
  {
    "name": "Saga Hotel Oslo, WorldHotels Crafted",
    "website": "",
    "location": {
      "latitude": 59.9228764,
      "longitude": 10.7204265
    },
    "address": {
      "streetNumber": "39",
      "streetName": "Eilert Sundts gate",
      "postalCode": "0259"
    }
  },
  {
    "name": "Quality Hotel Expo",
    "website": "",
    "location": {
      "latitude": 59.90183450000001,
      "longitude": 10.6270625
    },
    "address": {
      "streetNumber": "20",
      "streetName": "Snarøyveien",
      "postalCode": "1360"
    }
  },
  {
    "name": "Home Hotel Folketeateret",
    "website": "",
    "location": {
      "latitude": 59.9139388,
      "longitude": 10.7505243
    },
    "address": {
      "streetNumber": "21-23",
      "streetName": "Storgata",
      "postalCode": "0184"
    }
  },
  {
    "name": "Home Hotel Gabelshus",
    "website": "",
    "location": {
      "latitude": 59.91372399999999,
      "longitude": 10.7089686
    },
    "address": {
      "streetNumber": "16",
      "streetName": "Gabels gate",
      "postalCode": "0272"
    }
  },
  {
    "name": "Thon Hotel Opera",
    "website": "",
    "location": {
      "latitude": 59.90948330000001,
      "longitude": 10.7532056
    },
    "address": {
      "streetNumber": "4",
      "streetName": "Dronning Eufemias gate",
      "postalCode": "0191"
    }
  },
  {
    "name": "Thon Hotel Gyldenløve",
    "website": "",
    "location": {
      "latitude": 59.9251776,
      "longitude": 10.7223636
    },
    "address": {
      "streetNumber": "20",
      "streetName": "Bogstadveien",
      "postalCode": "0355"
    }
  },
  {
    "name": "Thon Hotel Vika Atrium",
    "website": "",
    "location": {
      "latitude": 59.9112534,
      "longitude": 10.7239414
    },
    "address": {
      "streetNumber": "45",
      "streetName": "Munkedamsveien",
      "postalCode": "0250"
    }
  },
  {
    "name": "Hotel Bristol",
    "website": "",
    "location": {
      "latitude": 59.91532169999999,
      "longitude": 10.7393716
    },
    "address": {
      "streetNumber": "7",
      "streetName": "Kristian IVs gate",
      "postalCode": "0164"
    }
  },
  {
    "name": "Oslo Youth Hostel Haraldsheim",
    "website": "",
    "location": {
      "latitude": 59.9409861,
      "longitude": 10.7884482
    },
    "address": {
      "streetNumber": "4",
      "streetName": "Haraldsheimveien",
      "postalCode": "0587"
    }
  },
  {
    "name": "Radisson Blu Plaza Hotel, Oslo",
    "website": "",
    "location": {
      "latitude": 59.91240399999999,
      "longitude": 10.7559371
    },
    "address": {
      "streetNumber": "3",
      "streetName": "Sonja Henies plass",
      "postalCode": "0185"
    }
  },
  {
    "name": "Scandic Solli",
    "website": "",
    "location": {
      "latitude": 59.91384469999999,
      "longitude": 10.7211961
    },
    "address": {
      "streetNumber": "68",
      "streetName": "Parkveien",
      "postalCode": "0254"
    }
  },
  {
    "name": "Thon Hotel Ullevaal Stadion",
    "website": "",
    "location": {
      "latitude": 59.9498072,
      "longitude": 10.7361179
    },
    "address": {
      "streetNumber": "77C",
      "streetName": "Sognsveien",
      "postalCode": "0855"
    }
  },
  {
    "name": "Scandic Sjølyst",
    "website": "",
    "location": {
      "latitude": 59.9204186,
      "longitude": 10.6828037
    },
    "address": {
      "streetNumber": "28",
      "streetName": "Karenslyst Allé",
      "postalCode": "0278"
    }
  },
  {
    "name": "Citybox Oslo",
    "website": "",
    "location": {
      "latitude": 59.91034560000001,
      "longitude": 10.7472907
    },
    "address": {
      "streetNumber": "6",
      "streetName": "Prinsens gate",
      "postalCode": "0152"
    }
  },
  {
    "name": "Grand Hotel Oslo",
    "website": "",
    "location": {
      "latitude": 59.9137238,
      "longitude": 10.7394509
    },
    "address": {
      "streetNumber": "31",
      "streetName": "Karl Johans gate",
      "postalCode": "0159"
    }
  },
  {
    "name": "Radisson Blu Scandinavia Hotel, Oslo",
    "website": "",
    "location": {
      "latitude": 59.91857129999999,
      "longitude": 10.7339016
    },
    "address": {
      "streetNumber": "30",
      "streetName": "Holbergs gate",
      "postalCode": "0166"
    }
  },
  {
    "name": "Home Hotel Bastion",
    "website": "",
    "location": {
      "latitude": 59.90819130000001,
      "longitude": 10.7450702
    },
    "address": {
      "streetNumber": "7",
      "streetName": "Skippergata",
      "postalCode": "0152"
    }
  },
  {
    "name": "Thon Hotel Spectrum",
    "website": "",
    "location": {
      "latitude": 59.914075,
      "longitude": 10.7559904
    },
    "address": {
      "streetNumber": "7",
      "streetName": "Brugata",
      "postalCode": "0186"
    }
  },
  {
    "name": "Voksenåsen Hotell, BW Signature Collection",
    "website": "",
    "location": {
      "latitude": 59.9752705,
      "longitude": 10.6654984
    },
    "address": {
      "streetNumber": "4",
      "streetName": "Ullveien",
      "postalCode": "0791"
    }
  },
  {
    "name": "Hotell Bondeheimen",
    "website": "",
    "location": {
      "latitude": 59.9147074,
      "longitude": 10.7403558
    },
    "address": {
      "streetNumber": "2",
      "streetName": "Kristian IVs gate",
      "postalCode": "0159"
    }
  },
  {
    "name": "Comfort Hotel Børsparken",
    "website": "",
    "location": {
      "latitude": 59.90947989999999,
      "longitude": 10.7473541
    },
    "address": {
      "streetNumber": "4",
      "streetName": "Tollbugata",
      "postalCode": "0152"
    }
  },
  {
    "name": "Gaustad Hotel",
    "website": "",
    "location": {
      "latitude": 59.95081140000001,
      "longitude": 10.7165883
    },
    "address": {
      "streetNumber": "20",
      "streetName": "Sognsvannsveien",
      "postalCode": "0372"
    }
  },
  {
    "name": "Ellingsen Pensjonat",
    "website": "",
    "location": {
      "latitude": 59.9229694,
      "longitude": 10.7224111
    },
    "address": {
      "streetNumber": "25",
      "streetName": "Holtegata",
      "postalCode": "0355"
    }
  },
  {
    "name": "Smarthotel Oslo",
    "website": "",
    "location": {
      "latitude": 59.9177392,
      "longitude": 10.7366468
    },
    "address": {
      "streetNumber": "26",
      "streetName": "Sankt Olavs Gate",
      "postalCode": "0166"
    }
  },
  {
    "name": "Quality Hotel 33",
    "website": "",
    "location": {
      "latitude": 59.92875649999999,
      "longitude": 10.8182742
    },
    "address": {
      "streetNumber": "33",
      "streetName": "Østre Aker vei",
      "postalCode": "0581"
    }
  },
  {
    "name": "Scandic Vulkan",
    "website": "",
    "location": {
      "latitude": 59.9222391,
      "longitude": 10.7510158
    },
    "address": {
      "streetNumber": "13A",
      "streetName": "Maridalsveien",
      "postalCode": "0178"
    }
  },
  {
    "name": "Hotel Continental, Oslo",
    "website": "",
    "location": {
      "latitude": 59.9141596,
      "longitude": 10.7335142
    },
    "address": {
      "streetNumber": "24/26",
      "streetName": "Stortingsgata",
      "postalCode": "0117"
    }
  },
  {
    "name": "Oslo Guldsmeden Hotels",
    "website": "",
    "location": {
      "latitude": 59.91229440000001,
      "longitude": 10.7192354
    },
    "address": {
      "streetNumber": "78",
      "streetName": "Parkveien",
      "postalCode": "0254"
    }
  },
  {
    "name": "Radisson Blu Nydalen Hotel, Oslo",
    "website": "",
    "location": {
      "latitude": 59.9490208,
      "longitude": 10.7659994
    },
    "address": {
      "streetNumber": "33",
      "streetName": "Nydalsveien",
      "postalCode": "0484"
    }
  },
  {
    "name": "Comfort Hotel Grand Central",
    "website": "",
    "location": {
      "latitude": 59.9105843,
      "longitude": 10.7507837
    },
    "address": {
      "streetNumber": "1",
      "streetName": "Jernbanetorget",
      "postalCode": "0154"
    }
  },
  {
    "name": "Thon Hotel Astoria",
    "website": "",
    "location": {
      "latitude": 59.91114099999999,
      "longitude": 10.746808
    },
    "address": {
      "streetNumber": "21",
      "streetName": "Dronningens gate",
      "postalCode": "0154"
    }
  },
  {
    "name": "Thon Hotel Panorama",
    "website": "",
    "location": {
      "latitude": 59.9092376,
      "longitude": 10.7440608
    },
    "address": {
      "streetNumber": "7B",
      "streetName": "Rådhusgata",
      "postalCode": "0151"
    }
  },
  {
    "name": "Radisson Blu Park Hotel, Oslo",
    "website": "",
    "location": {
      "latitude": 59.9035758,
      "longitude": 10.6316738
    },
    "address": {
      "streetNumber": "80",
      "streetName": "Fornebuveien",
      "postalCode": "1366"
    }
  },
  {
    "name": "Hotel Montebello",
    "website": "",
    "location": {
      "latitude": 59.93201140000001,
      "longitude": 10.6607831
    },
    "address": {
      "streetNumber": "70",
      "streetName": "Ullernchausseen",
      "postalCode": "0379"
    }
  },
  {
    "name": "Scandic Victoria",
    "website": "",
    "location": {
      "latitude": 59.9125404,
      "longitude": 10.7369184
    },
    "address": {
      "streetNumber": "13",
      "streetName": "Rosenkrantz' gate",
      "postalCode": "0121"
    }
  },
  {
    "name": "Comfort Hotel Xpress Youngstorget",
    "website": "",
    "location": {
      "latitude": 59.9164346,
      "longitude": 10.7495221
    },
    "address": {
      "streetNumber": "26",
      "streetName": "Møllergata",
      "postalCode": "0179"
    }
  },
  {
    "name": "Thon Hotel Terminus",
    "website": "",
    "location": {
      "latitude": 59.91330839999999,
      "longitude": 10.7526292
    },
    "address": {
      "streetNumber": "10",
      "streetName": "Stenersgata",
      "postalCode": "0184"
    }
  },
  {
    "name": "Soria Moria hotel and conference center",
    "website": "",
    "location": {
      "latitude": 59.97527780000001,
      "longitude": 10.6552778
    },
    "address": {
      "streetNumber": "60",
      "streetName": "Voksenkollveien",
      "postalCode": "0790"
    }
  },
  {
    "name": "Scandic Holberg",
    "website": "",
    "location": {
      "latitude": 59.9196472,
      "longitude": 10.7345104
    },
    "address": {
      "streetNumber": "1",
      "streetName": "Holbergs Plass",
      "postalCode": "0166"
    }
  },
  {
    "name": "Cochs Pension",
    "website": "",
    "location": {
      "latitude": 59.920624,
      "longitude": 10.728149
    },
    "address": {
      "streetNumber": "25",
      "streetName": "Parkveien",
      "postalCode": "0350"
    }
  },
  {
    "name": "K7 Hotel Oslo",
    "website": "",
    "location": {
      "latitude": 59.9099283,
      "longitude": 10.741171
    },
    "address": {
      "streetNumber": "7",
      "streetName": "Kongens gate",
      "postalCode": "0153"
    }
  },
  {
    "name": "Thon Hotel Cecil",
    "website": "",
    "location": {
      "latitude": 59.9129731,
      "longitude": 10.7374329
    },
    "address": {
      "streetNumber": "8",
      "streetName": "Stortingsgata",
      "postalCode": "0161"
    }
  },
  {
    "name": "Scandic St. Olavs plass",
    "website": "",
    "location": {
      "latitude": 59.91817400000001,
      "longitude": 10.739867
    },
    "address": {
      "streetNumber": "1",
      "streetName": "Sankt Olavs Plass",
      "postalCode": "0165"
    }
  },
  {
    "name": "Thon Hotel Slottsparken",
    "website": "",
    "location": {
      "latitude": 59.91852859999999,
      "longitude": 10.7321257
    },
    "address": {
      "streetNumber": "5",
      "streetName": "Wergelandsveien",
      "postalCode": "0167"
    }
  },
  {
    "name": "Scandic Fornebu",
    "website": "",
    "location": {
      "latitude": 59.89369439999999,
      "longitude": 10.62915
    },
    "address": {
      "streetNumber": "2",
      "streetName": "Martin Linges vei",
      "postalCode": "1364"
    }
  },
  {
    "name": "Best Western Plus City Hotel",
    "website": "",
    "location": {
      "latitude": 59.9114742,
      "longitude": 10.7452061
    },
    "address": {
      "streetNumber": "30",
      "streetName": "Kirkegata",
      "postalCode": "0153"
    }
  },
  {
    "name": "P-Hotel Oslo",
    "website": "",
    "location": {
      "latitude": 59.91443750000001,
      "longitude": 10.7418982
    },
    "address": {
      "streetNumber": "19",
      "streetName": "Grensen",
      "postalCode": "0159"
    }
  },
  {
    "name": "First Hotel Millennium",
    "website": "",
    "location": {
      "latitude": 59.91127319999999,
      "longitude": 10.7411802
    },
    "address": {
      "streetNumber": "25",
      "streetName": "Tollbugata",
      "postalCode": "0157"
    }
  },
  {
    "name": "Hotel Christiania Teater",
    "website": "",
    "location": {
      "latitude": 59.9135605,
      "longitude": 10.7359369
    },
    "address": {
      "streetNumber": "16",
      "streetName": "Stortingsgata",
      "postalCode": "0161"
    }
  },
  {
    "name": "Scandic Helsfyr",
    "website": "",
    "location": {
      "latitude": 59.9157343,
      "longitude": 10.8046742
    },
    "address": {
      "streetNumber": "7",
      "streetName": "Innspurten",
      "postalCode": "0663"
    }
  },
  {
    "name": "Scandic Oslo City",
    "website": "",
    "location": {
      "latitude": 59.91196830000001,
      "longitude": 10.7492356
    },
    "address": {
      "streetNumber": "1",
      "streetName": "Europarådets Plass",
      "postalCode": "0154"
    }
  },
  {
    "name": "Radisson Blu Hotel, Alna Oslo",
    "website": "",
    "location": {
      "latitude": 59.93013000000001,
      "longitude": 10.86825
    },
    "address": {
      "streetNumber": "21",
      "streetName": "Tevlingveien",
      "postalCode": "1081"
    }
  },
  {
    "name": "Frogner House Apartments, Oslo. Bygdoy Alle 53",
    "website": "",
    "location": {
      "latitude": 59.9182033,
      "longitude": 10.7062412
    },
    "address": {
      "streetNumber": "53",
      "streetName": "Bygdøy allé",
      "postalCode": "0265"
    }
  },
  {
    "name": "Thon Hotel Linne",
    "website": "",
    "location": {
      "latitude": 59.9394794,
      "longitude": 10.8291978
    },
    "address": {
      "streetNumber": "12",
      "streetName": "Statsråd Mathiesens vei",
      "postalCode": "0598"
    }
  },
  {
    "name": "Scandic Holmenkollen Park Hotel",
    "website": "",
    "location": {
      "latitude": 59.9627894,
      "longitude": 10.6628325
    },
    "address": {
      "streetNumber": "26",
      "streetName": "Kongeveien",
      "postalCode": "0787"
    }
  }
]

